{"id": "DBXIKTAaVtujGyiTs9XQ8w_0000", "full_name": "don elliott", "first_name": "don", "middle_initial": "d", "middle_name": "duane", "last_initial": "e", "last_name": "elliott", "gender": "male", "birth_year": 1960, "birth_date": "1960-11", "linkedin_url": "linkedin.com/in/don-elliott-4895aa8", "linkedin_username": "don-elliott-4895aa8", "linkedin_id": "25357353", "facebook_url": "facebook.com/comicman25", "facebook_username": "comicman25", "facebook_id": "1473182769", "twitter_url": null, "twitter_username": null, "github_url": null, "github_username": null, "work_email": null, "personal_emails": ["comicman25@gmail.com"], "mobile_phone": "+13607078648", "industry": "financial services", "job_title": "real estate broker, realtor", "job_title_role": "real_estate", "job_title_sub_role": "realtor", "job_title_levels": [], "job_company_id": "coldwell-banker-bain", "job_company_name": "coldwell banker bain | seal", "job_company_website": "coldwellbankerbain.com", "job_company_size": "1001-5000", "job_company_founded": 1972, "job_company_industry": "real estate", "job_company_linkedin_url": "linkedin.com/company/coldwell-banker-bain", "job_company_linkedin_id": "10877", "job_company_facebook_url": "facebook.com/cbbain", "job_company_twitter_url": "twitter.com/cbbainseal", "job_company_location_name": "bellevue, washington, united states", "job_company_location_locality": "bellevue", "job_company_location_metro": "seattle, washington", "job_company_location_region": "washington", "job_company_location_geo": "47.61,-122.19", "job_company_location_street_address": "12721 bel red road", "job_company_location_address_line_2": null, "job_company_location_postal_code": "98005", "job_company_location_country": "united states", "job_company_location_continent": "north america", "job_last_updated": "2022-03-06", "job_start_date": "2012-10", "location_name": "mount vernon, washington, united states", "location_locality": "mount vernon", "location_metro": "mount vernon, washington", "location_region": "washington", "location_country": "united states", "location_continent": "north america", "location_street_address": "15872 moore road", "location_address_line_2": null, "location_postal_code": "98273", "location_geo": "48.42,-122.33", "location_last_updated": "2021-07-01", "phone_numbers": ["+12064090581", "+13607078648", "+12062004090"], "emails": [{"address": "don@hometourclub.com", "type": "professional"}, {"address": "comicman25@gmail.com", "type": "personal"}], "interests": [], "skills": ["leadership", "management", "strategy", "strategic planning", "sales", "banking", "program management", "customer service", "marketing", "project management", "training", "finance", "process improvement", "strategic partnerships", "advertising", "mergers and acquisitions", "process engineering", "product development", "business strategy", "team building", "business analysis", "sales management", "corporate communications", "market research"], "location_names": ["dayton, washington, united states", "colusa, california, united states", "springfield, oregon, united states", "mount vernon, washington, united states", "eugene, oregon, united states", "seattle, washington, united states"], "regions": ["california, united states", "washington, united states", "oregon, united states"], "countries": ["united states"], "street_addresses": [{"name": "seattle, washington, united states", "locality": "seattle", "region": "washington", "metro": "seattle, washington", "country": "united states", "continent": "north america", "street_address": "6115 linden avenue north", "address_line_2": null, "postal_code": "98103", "geo": "47.60,-122.33"}, {"name": "mount vernon, washington, united states", "locality": "mount vernon", "region": "washington", "metro": "mount vernon, washington", "country": "united states", "continent": "north america", "street_address": "15872 moore road", "address_line_2": null, "postal_code": "98273", "geo": "48.42,-122.33"}, {"name": "seattle, washington, united states", "locality": "seattle", "region": "washington", "metro": "seattle, washington", "country": "united states", "continent": "north america", "street_address": "601 south washington street", "address_line_2": "apartment 309", "postal_code": "98104", "geo": "47.60,-122.33"}, {"name": "seattle, washington, united states", "locality": "seattle", "region": "washington", "metro": "seattle, washington", "country": "united states", "continent": "north america", "street_address": "1356 east olive way", "address_line_2": "apartment 101", "postal_code": "98122", "geo": "47.60,-122.33"}, {"name": "eugene, oregon, united states", "locality": "eugene", "region": "oregon", "metro": "eugene, oregon", "country": "united states", "continent": "north america", "street_address": "po box 5028", "address_line_2": null, "postal_code": "97405", "geo": "44.05,-123.08"}, {"name": "seattle, washington, united states", "locality": "seattle", "region": "washington", "metro": "seattle, washington", "country": "united states", "continent": "north america", "street_address": "600 7th avenue", "address_line_2": "apartment 515", "postal_code": "98104", "geo": "47.60,-122.33"}, {"name": "springfield, oregon, united states", "locality": "springfield", "region": "oregon", "metro": "eugene, oregon", "country": "united states", "continent": "north america", "street_address": "36730 keller lane", "address_line_2": null, "postal_code": "97478", "geo": "44.04,-123.02"}, {"name": "seattle, washington, united states", "locality": "seattle", "region": "washington", "metro": "seattle, washington", "country": "united states", "continent": "north america", "street_address": "1633 melrose avenue", "address_line_2": "apartment 306", "postal_code": "98122", "geo": "47.60,-122.33"}, {"name": "seattle, washington, united states", "locality": "seattle", "region": "washington", "metro": "seattle, washington", "country": "united states", "continent": "north america", "street_address": "1111 15th avenue", "address_line_2": "apartment 8", "postal_code": "98122", "geo": "47.60,-122.33"}, {"name": "seattle, washington, united states", "locality": "seattle", "region": "washington", "metro": "seattle, washington", "country": "united states", "continent": "north america", "street_address": "5911 fremont north avenue", "address_line_2": null, "postal_code": "98103", "geo": "47.60,-122.33"}, {"name": "dayton, washington, united states", "locality": "dayton", "region": "washington", "metro": null, "country": "united states", "continent": "north america", "street_address": "1242 north touchet road", "address_line_2": null, "postal_code": "99328", "geo": "46.32,-117.97"}, {"name": "seattle, washington, united states", "locality": "seattle", "region": "washington", "metro": "seattle, washington", "country": "united states", "continent": "north america", "street_address": "7012 15th", "address_line_2": null, "postal_code": "98115", "geo": "47.60,-122.33"}, {"name": "seattle, washington, united states", "locality": "seattle", "region": "washington", "metro": "seattle, washington", "country": "united states", "continent": "north america", "street_address": "1701 east olive way", "address_line_2": null, "postal_code": "98102", "geo": "47.60,-122.33"}, {"name": "seattle, washington, united states", "locality": "seattle", "region": "washington", "metro": "seattle, washington", "country": "united states", "continent": "north america", "street_address": "1016 bellevue east court", "address_line_2": "apartment d", "postal_code": "98102", "geo": "47.60,-122.33"}, {"name": "seattle, washington, united states", "locality": "seattle", "region": "washington", "metro": "seattle, washington", "country": "united states", "continent": "north america", "street_address": "1029 summit east avenue", "address_line_2": "apartment 7", "postal_code": "98102", "geo": "47.60,-122.33"}], "experience": [{"company": {"name": "jpmorgan chase & co.", "size": "10001+", "id": "jpmorganchase", "founded": 1823, "industry": "financial services", "location": {"name": "new york, new york, united states", "locality": "new york", "region": "new york", "metro": "new york, new york", "country": "united states", "continent": "north america", "street_address": "270 park avenue", "address_line_2": null, "postal_code": "10017", "geo": "40.71,-74.00"}, "linkedin_url": "linkedin.com/company/jpmorganchase", "linkedin_id": "1068", "facebook_url": null, "twitter_url": "twitter.com/jpmorgan", "website": "jpmorganchase.com"}, "start_date": "2009-05", "end_date": "2009-07", "title": {"name": "fvp, manager, sales administration", "role": "sales", "sub_role": "accounts", "levels": ["manager"]}, "location_names": [], "is_primary": false}, {"company": {"name": "jpmorgan chase & co.", "size": "10001+", "id": "jpmorganchase", "founded": 1823, "industry": "financial services", "location": {"name": "new york, new york, united states", "locality": "new york", "region": "new york", "metro": "new york, new york", "country": "united states", "continent": "north america", "street_address": "270 park avenue", "address_line_2": null, "postal_code": "10017", "geo": "40.71,-74.00"}, "linkedin_url": "linkedin.com/company/jpmorganchase", "linkedin_id": "1068", "facebook_url": null, "twitter_url": "twitter.com/jpmorgan", "website": "jpmorganchase.com"}, "start_date": "2004-04", "end_date": "2009-05", "title": {"name": "fvp, sales administration", "role": "sales", "sub_role": "accounts", "levels": []}, "location_names": [], "is_primary": false}, {"company": {"name": "jpmorgan chase & co.", "size": "10001+", "id": "jpmorganchase", "founded": 1823, "industry": "financial services", "location": {"name": "new york, new york, united states", "locality": "new york", "region": "new york", "metro": "new york, new york", "country": "united states", "continent": "north america", "street_address": "270 park avenue", "address_line_2": null, "postal_code": "10017", "geo": "40.71,-74.00"}, "linkedin_url": "linkedin.com/company/jpmorganchase", "linkedin_id": "1068", "facebook_url": null, "twitter_url": "twitter.com/jpmorgan", "website": "jpmorganchase.com"}, "start_date": "1999-11", "end_date": "2004-04", "title": {"name": "vice president, project manager", "role": "operations", "sub_role": "project_management", "levels": ["manager", "vp"]}, "location_names": [], "is_primary": false}, {"company": {"name": "jpmorgan chase & co.", "size": "10001+", "id": "jpmorganchase", "founded": 1823, "industry": "financial services", "location": {"name": "new york, new york, united states", "locality": "new york", "region": "new york", "metro": "new york, new york", "country": "united states", "continent": "north america", "street_address": "270 park avenue", "address_line_2": null, "postal_code": "10017", "geo": "40.71,-74.00"}, "linkedin_url": "linkedin.com/company/jpmorganchase", "linkedin_id": "1068", "facebook_url": null, "twitter_url": "twitter.com/jpmorgan", "website": "jpmorganchase.com"}, "start_date": "1997-04", "end_date": "1999-11", "title": {"name": "senior training design specialist", "role": "human_resources", "sub_role": "employee_development", "levels": ["senior"]}, "location_names": [], "is_primary": false}, {"company": {"name": "jpmorgan chase & co.", "size": "10001+", "id": "jpmorganchase", "founded": 1823, "industry": "financial services", "location": {"name": "new york, new york, united states", "locality": "new york", "region": "new york", "metro": "new york, new york", "country": "united states", "continent": "north america", "street_address": "270 park avenue", "address_line_2": null, "postal_code": "10017", "geo": "40.71,-74.00"}, "linkedin_url": "linkedin.com/company/jpmorganchase", "linkedin_id": "1068", "facebook_url": null, "twitter_url": "twitter.com/jpmorgan", "website": "jpmorganchase.com"}, "start_date": "1995-08", "end_date": "1997-04", "title": {"name": "institutional sales director - sales development specialist", "role": "sales", "sub_role": "accounts", "levels": ["director"]}, "location_names": [], "is_primary": false}, {"company": {"name": "american express financial advisors", "size": "10001+", "id": "american-express-financial-advisors", "founded": null, "industry": "financial services", "location": {"name": "united states", "locality": null, "region": null, "metro": null, "country": "united states", "continent": "north america", "street_address": null, "address_line_2": null, "postal_code": null, "geo": null}, "linkedin_url": "linkedin.com/company/american-express-financial-advisors", "linkedin_id": "1280", "facebook_url": null, "twitter_url": null, "website": null}, "start_date": "1994-07", "end_date": "1995-07", "title": {"name": "financial advisor", "role": "finance", "sub_role": null, "levels": []}, "location_names": [], "is_primary": false}, {"company": {"name": "jpmorgan chase & co.", "size": "10001+", "id": "jpmorganchase", "founded": 1823, "industry": "financial services", "location": {"name": "new york, new york, united states", "locality": "new york", "region": "new york", "metro": "new york, new york", "country": "united states", "continent": "north america", "street_address": "270 park avenue", "address_line_2": null, "postal_code": "10017", "geo": "40.71,-74.00"}, "linkedin_url": "linkedin.com/company/jpmorganchase", "linkedin_id": "1068", "facebook_url": null, "twitter_url": "twitter.com/jpmorgan", "website": "jpmorganchase.com"}, "start_date": "1991-06", "end_date": "1994-04", "title": {"name": "acquisitions coordinator", "role": "operations", "sub_role": null, "levels": []}, "location_names": [], "is_primary": false}, {"company": {"name": "jpmorgan chase & co.", "size": "10001+", "id": "jpmorganchase", "founded": 1823, "industry": "financial services", "location": {"name": "new york, new york, united states", "locality": "new york", "region": "new york", "metro": "new york, new york", "country": "united states", "continent": "north america", "street_address": "270 park avenue", "address_line_2": null, "postal_code": "10017", "geo": "40.71,-74.00"}, "linkedin_url": "linkedin.com/company/jpmorganchase", "linkedin_id": "1068", "facebook_url": null, "twitter_url": "twitter.com/jpmorgan", "website": "jpmorganchase.com"}, "start_date": "1990-04", "end_date": "1991-06", "title": {"name": "product development specialist", "role": "operations", "sub_role": "product", "levels": []}, "location_names": [], "is_primary": false}, {"company": {"name": "jpmorgan chase & co.", "size": "10001+", "id": "jpmorganchase", "founded": 1823, "industry": "financial services", "location": {"name": "new york, new york, united states", "locality": "new york", "region": "new york", "metro": "new york, new york", "country": "united states", "continent": "north america", "street_address": "270 park avenue", "address_line_2": null, "postal_code": "10017", "geo": "40.71,-74.00"}, "linkedin_url": "linkedin.com/company/jpmorganchase", "linkedin_id": "1068", "facebook_url": null, "twitter_url": "twitter.com/jpmorgan", "website": "jpmorganchase.com"}, "start_date": "1985-05", "end_date": "1990-04", "title": {"name": "operations manager", "role": "operations", "sub_role": null, "levels": ["manager"]}, "location_names": [], "is_primary": false}, {"company": {"name": "don & george real estate associates", "size": "1-10", "id": "whyweloveskagit", "founded": null, "industry": "real estate", "location": {"name": "anacortes, washington, united states", "locality": "anacortes", "region": "washington", "metro": "mount vernon, washington", "country": "united states", "continent": "north america", "street_address": "3110 commercial avenue", "address_line_2": "suite 101", "postal_code": "98221", "geo": "48.51,-122.61"}, "linkedin_url": "linkedin.com/company/whyweloveskagit", "linkedin_id": "1182603", "facebook_url": "facebook.com/hometourclub", "twitter_url": "twitter.com/donandgeorge", "website": "whyweloveskagit.com"}, "location_names": [], "end_date": null, "start_date": "2010-06", "title": {"name": "marketing manager", "role": "marketing", "sub_role": null, "levels": ["manager"]}, "is_primary": false}, {"company": {"name": "coldwell banker bain | seal", "size": "1001-5000", "id": "coldwell-banker-bain", "founded": 1972, "industry": "real estate", "location": {"name": "bellevue, washington, united states", "locality": "bellevue", "region": "washington", "metro": "seattle, washington", "country": "united states", "continent": "north america", "street_address": "12721 bel red road", "address_line_2": null, "postal_code": "98005", "geo": "47.61,-122.19"}, "linkedin_url": "linkedin.com/company/coldwell-banker-bain", "linkedin_id": "10877", "facebook_url": "facebook.com/cbbain", "twitter_url": "twitter.com/cbbainseal", "website": "coldwellbankerbain.com"}, "location_names": ["bellevue, washington, united states"], "end_date": null, "start_date": "2012-10", "title": {"name": "real estate broker, realtor", "role": "real_estate", "sub_role": "realtor", "levels": []}, "is_primary": true}], "education": [{"school": {"name": "oroville high school", "type": "secondary school", "id": null, "location": null, "linkedin_url": null, "facebook_url": null, "twitter_url": null, "linkedin_id": null, "website": null, "domain": null}, "degrees": [], "start_date": null, "end_date": null, "majors": [], "minors": [], "gpa": null}], "profiles": [{"network": "linkedin", "id": "25357353", "url": "linkedin.com/in/don-elliott-4895aa8", "username": "don-elliott-4895aa8"}, {"network": "facebook", "id": "1473182769", "url": "facebook.com/comicman25", "username": "comicman25"}], "version_status": {"status": "updated", "contains": [], "previous_version": "17.0", "current_version": "18.0"}}
