{"id": "FENacidCLuRFMUY2OVeszw_0000", "full_name": "joyce juntunen", "first_name": "joyce", "middle_initial": null, "middle_name": null, "last_initial": "j", "last_name": "juntunen", "gender": "female", "birth_year": 1940, "birth_date": null, "linkedin_url": "linkedin.com/in/joycejuntunen", "linkedin_username": "joycejuntunen", "linkedin_id": "4228917", "facebook_url": "facebook.com/joycegal", "facebook_username": "joycegal", "facebook_id": "1354269481", "twitter_url": null, "twitter_username": null, "github_url": null, "github_username": null, "work_email": null, "personal_emails": ["joycegal@yahoo.com"], "mobile_phone": "+12062712625", "industry": "real estate", "job_title": "licensed real estate broker", "job_title_role": "finance", "job_title_sub_role": null, "job_title_levels": [], "job_company_id": "coldwell-banker-bain", "job_company_name": "coldwell banker bain | seal", "job_company_website": "coldwellbankerbain.com", "job_company_size": "1001-5000", "job_company_founded": 1972, "job_company_industry": "real estate", "job_company_linkedin_url": "linkedin.com/company/coldwell-banker-bain", "job_company_linkedin_id": "10877", "job_company_facebook_url": "facebook.com/cbbain", "job_company_twitter_url": "twitter.com/cbbainseal", "job_company_location_name": "bellevue, washington, united states", "job_company_location_locality": "bellevue", "job_company_location_metro": "seattle, washington", "job_company_location_region": "washington", "job_company_location_geo": "47.61,-122.19", "job_company_location_street_address": "12721 bel red road", "job_company_location_address_line_2": null, "job_company_location_postal_code": "98005", "job_company_location_country": "united states", "job_company_location_continent": "north america", "job_last_updated": "2022-03-09", "job_start_date": "2018-04-23", "location_name": "bothell, washington, united states", "location_locality": "bothell", "location_metro": "seattle, washington", "location_region": "washington", "location_country": "united states", "location_continent": "north america", "location_street_address": "14802 simonds road northeast", "location_address_line_2": null, "location_postal_code": "98011", "location_geo": "47.76,-122.20", "location_last_updated": "2021-07-01", "phone_numbers": ["+12062712625"], "emails": [{"address": "joyce@bizible.com", "type": "professional"}, {"address": "joycegal@yahoo.com", "type": "personal"}, {"address": "joyce.juntunen@bizible.com", "type": "professional"}, {"address": "joycej@marketleader.com", "type": "professional"}], "interests": ["economic empowerment", "civil rights and social action", "environment", "poverty alleviation", "animal welfare"], "skills": ["crm", "sales process", "salesforce.com", "account management", "sales", "sales management", "business development", "saas", "sales operations", "lead generation", "management", "marketing", "leadership", "online marketing", "b2b", "customer service", "cold calling", "training", "direct sales", "online advertising", "customer retention", "strategic planning", "advertising", "new business development", "sales presentations", "solution selling", "strategic partnerships", "selling", "forecasting", "call centers", "email marketing", "product management", "coaching", "pipeline marketing", "change management", "e learning", "negotiation", "p&l responsibility", "p&l management", "sales compensation", "b2c", "sales rep training", "learning management systems", "marketing automation", "employee training", "elearning", "direct marketing", "lms", "h&s training", "customer service training"], "location_names": ["steamboat springs, colorado, united states", "bothell, washington, united states", "montauk, new york, united states", "allston, massachusetts, united states", "newton, massachusetts, united states", "seattle, washington, united states", "boston, massachusetts, united states", "eatontown, new jersey, united states"], "regions": ["colorado, united states", "new jersey, united states", "washington, united states", "new york, united states", "massachusetts, united states"], "countries": ["united states"], "street_addresses": [{"name": "bothell, washington, united states", "locality": "bothell", "region": "washington", "metro": "seattle, washington", "country": "united states", "continent": "north america", "street_address": "14802 simonds road northeast", "address_line_2": null, "postal_code": "98011", "geo": "47.76,-122.20"}, {"name": "seattle, washington, united states", "locality": "seattle", "region": "washington", "metro": "seattle, washington", "country": "united states", "continent": "north america", "street_address": "5649 18th", "address_line_2": null, "postal_code": "98106", "geo": "47.60,-122.33"}, {"name": "seattle, washington, united states", "locality": "seattle", "region": "washington", "metro": "seattle, washington", "country": "united states", "continent": "north america", "street_address": "4838 delridge southwest way", "address_line_2": "apartment c", "postal_code": "98106", "geo": "47.60,-122.33"}, {"name": "seattle, washington, united states", "locality": "seattle", "region": "washington", "metro": "seattle, washington", "country": "united states", "continent": "north america", "street_address": "5005 phinney north avenue", "address_line_2": "apartment 206", "postal_code": "98103", "geo": "47.60,-122.33"}, {"name": "seattle, washington, united states", "locality": "seattle", "region": "washington", "metro": "seattle, washington", "country": "united states", "continent": "north america", "street_address": "621 1st", "address_line_2": null, "postal_code": "98119", "geo": "47.60,-122.33"}, {"name": "seattle, washington, united states", "locality": "seattle", "region": "washington", "metro": "seattle, washington", "country": "united states", "continent": "north america", "street_address": "5449 18th", "address_line_2": null, "postal_code": "98106", "geo": "47.60,-122.33"}, {"name": "seattle, washington, united states", "locality": "seattle", "region": "washington", "metro": "seattle, washington", "country": "united states", "continent": "north america", "street_address": "116 northwest 40th street", "address_line_2": null, "postal_code": "98107", "geo": "47.60,-122.33"}, {"name": "boston, massachusetts, united states", "locality": "boston", "region": "massachusetts", "metro": "boston, massachusetts", "country": "united states", "continent": "north america", "street_address": "116 riverway", "address_line_2": "apt 1", "postal_code": "02215", "geo": "42.35,-71.06"}, {"name": "steamboat springs, colorado, united states", "locality": "steamboat springs", "region": "colorado", "metro": null, "country": "united states", "continent": "north america", "street_address": "po box 771313", "address_line_2": null, "postal_code": "80477", "geo": "40.48,-106.83"}, {"name": "seattle, washington, united states", "locality": "seattle", "region": "washington", "metro": "seattle, washington", "country": "united states", "continent": "north america", "street_address": "4227 8th", "address_line_2": null, "postal_code": "98105", "geo": "47.60,-122.33"}, {"name": "eatontown, new jersey, united states", "locality": "eatontown", "region": "new jersey", "metro": "new york, new york", "country": "united states", "continent": "north america", "street_address": "23 jeryl street", "address_line_2": null, "postal_code": "07724", "geo": "40.29,-74.05"}, {"name": "newton, massachusetts, united states", "locality": "newton", "region": "massachusetts", "metro": "boston, massachusetts", "country": "united states", "continent": "north america", "street_address": "1367 commonwealth avenue", "address_line_2": null, "postal_code": "02465", "geo": "42.33,-71.20"}, {"name": "steamboat springs, colorado, united states", "locality": "steamboat springs", "region": "colorado", "metro": null, "country": "united states", "continent": "north america", "street_address": "po box 773706", "address_line_2": null, "postal_code": "80477", "geo": "40.48,-106.83"}, {"name": "allston, massachusetts, united states", "locality": "allston", "region": "massachusetts", "metro": null, "country": "united states", "continent": "north america", "street_address": "528 cambridge street", "address_line_2": null, "postal_code": "02134", "geo": "42.35,-71.12"}, {"name": "boston, massachusetts, united states", "locality": "boston", "region": "massachusetts", "metro": "boston, massachusetts", "country": "united states", "continent": "north america", "street_address": "po box 51083", "address_line_2": null, "postal_code": "02205", "geo": "42.35,-71.06"}, {"name": "allston, massachusetts, united states", "locality": "allston", "region": "massachusetts", "metro": null, "country": "united states", "continent": "north america", "street_address": "1367 commonwealth avenue", "address_line_2": "apartment 4", "postal_code": "02134", "geo": "42.35,-71.12"}, {"name": "montauk, new york, united states", "locality": "montauk", "region": "new york", "metro": "new york, new york", "country": "united states", "continent": "north america", "street_address": "po box 672", "address_line_2": null, "postal_code": "11954", "geo": "41.03,-71.95"}, {"name": "montauk, new york, united states", "locality": "montauk", "region": "new york", "metro": "new york, new york", "country": "united states", "continent": "north america", "street_address": "po box 2267", "address_line_2": null, "postal_code": "11954", "geo": "41.03,-71.95"}], "experience": [{"company": {"name": "market leader inc.", "size": "51-200", "id": "market-leader", "founded": 1999, "industry": "real estate", "location": {"name": "bellevue, washington, united states", "locality": "bellevue", "region": "washington", "metro": "seattle, washington", "country": "united states", "continent": "north america", "street_address": "3633 136th place southeast", "address_line_2": null, "postal_code": "98006", "geo": "47.61,-122.19"}, "linkedin_url": "linkedin.com/company/market-leader", "linkedin_id": "327454", "facebook_url": "facebook.com/marketleader", "twitter_url": "twitter.com/market_leader", "website": "marketleader.com"}, "location_names": ["seattle, washington, united states"], "end_date": "2007-08", "start_date": "2004-01", "title": {"name": "sales manager", "role": "sales", "sub_role": "accounts", "levels": ["manager"]}, "is_primary": false}, {"company": {"name": "market leader inc.", "size": "51-200", "id": "market-leader", "founded": 1999, "industry": "real estate", "location": {"name": "bellevue, washington, united states", "locality": "bellevue", "region": "washington", "metro": "seattle, washington", "country": "united states", "continent": "north america", "street_address": "3633 136th place southeast", "address_line_2": null, "postal_code": "98006", "geo": "47.61,-122.19"}, "linkedin_url": "linkedin.com/company/market-leader", "linkedin_id": "327454", "facebook_url": "facebook.com/marketleader", "twitter_url": "twitter.com/market_leader", "website": "marketleader.com"}, "location_names": ["seattle, washington, united states"], "end_date": "2003-12", "start_date": "2003-04", "title": {"name": "account executive", "role": "sales", "sub_role": "accounts", "levels": []}, "is_primary": false}, {"company": {"name": "trulia", "size": "501-1000", "id": "trulia", "founded": 2005, "industry": "internet", "location": {"name": "san francisco, california, united states", "locality": "san francisco", "region": "california", "metro": "san francisco, california", "country": "united states", "continent": "north america", "street_address": "535 mission street", "address_line_2": "suite 700", "postal_code": "94105", "geo": "37.77,-122.41"}, "linkedin_url": "linkedin.com/company/trulia", "linkedin_id": "167785", "facebook_url": "facebook.com/trulia", "twitter_url": "twitter.com/trulia", "website": "trulia.com"}, "location_names": ["seattle, washington, united states"], "end_date": "2014-12", "start_date": "2012-12", "title": {"name": "senior sales manager", "role": "sales", "sub_role": "accounts", "levels": ["manager", "senior"]}, "is_primary": false}, {"company": {"name": "bongarde", "size": "51-200", "id": "bongarde-media", "founded": 1990, "industry": "information services", "location": {"name": "penticton, british columbia, canada", "locality": "penticton", "region": "british columbia", "metro": null, "country": "canada", "continent": "north america", "street_address": "501 main street", "address_line_2": null, "postal_code": "v2a 9a6", "geo": "49.48,-119.58"}, "linkedin_url": "linkedin.com/company/bongarde-media", "linkedin_id": "98318", "facebook_url": null, "twitter_url": null, "website": "bongarde.com"}, "location_names": ["seattle, washington, united states"], "end_date": "2010-01", "start_date": "2009-04", "title": {"name": "senior manager bongarde account team", "role": null, "sub_role": null, "levels": ["manager", "senior"]}, "is_primary": false}, {"company": {"name": "centurylink", "size": "10001+", "id": "centurylink", "founded": 1930, "industry": "telecommunications", "location": {"name": "monroe, louisiana, united states", "locality": "monroe", "region": "louisiana", "metro": "monroe, louisiana", "country": "united states", "continent": "north america", "street_address": "100 centurylink drive", "address_line_2": null, "postal_code": "71201", "geo": "32.50,-92.11"}, "linkedin_url": "linkedin.com/company/centurylink", "linkedin_id": "4955", "facebook_url": "facebook.com/centurylink", "twitter_url": "twitter.com/centurylink", "website": "centurylink.com"}, "location_names": ["seattle, washington, united states"], "end_date": "2003-04", "start_date": "1999-12", "title": {"name": "sales development manager", "role": "sales", "sub_role": "pipeline", "levels": ["manager"]}, "is_primary": false}, {"company": {"name": "bongarde", "size": "51-200", "id": "bongarde-media", "founded": 1990, "industry": "information services", "location": {"name": "penticton, british columbia, canada", "locality": "penticton", "region": "british columbia", "metro": null, "country": "canada", "continent": "north america", "street_address": "501 main street", "address_line_2": null, "postal_code": "v2a 9a6", "geo": "49.48,-119.58"}, "linkedin_url": "linkedin.com/company/bongarde-media", "linkedin_id": "98318", "facebook_url": null, "twitter_url": null, "website": "bongarde.com"}, "location_names": ["seattle, washington, united states"], "end_date": "2012-12", "start_date": "2010-01", "title": {"name": "director, sales and service", "role": "sales", "sub_role": "accounts", "levels": ["director"]}, "is_primary": false}, {"company": {"name": "market leader inc.", "size": "51-200", "id": "market-leader", "founded": 1999, "industry": "real estate", "location": {"name": "bellevue, washington, united states", "locality": "bellevue", "region": "washington", "metro": "seattle, washington", "country": "united states", "continent": "north america", "street_address": "3633 136th place southeast", "address_line_2": null, "postal_code": "98006", "geo": "47.61,-122.19"}, "linkedin_url": "linkedin.com/company/market-leader", "linkedin_id": "327454", "facebook_url": "facebook.com/marketleader", "twitter_url": "twitter.com/market_leader", "website": "marketleader.com"}, "location_names": ["seattle, washington, united states"], "end_date": "2009-01", "start_date": "2007-09", "title": {"name": "manager of training", "role": "human_resources", "sub_role": "employee_development", "levels": ["manager"]}, "is_primary": false}, {"company": {"name": "market leader inc.", "size": "51-200", "id": "market-leader", "founded": 1999, "industry": "real estate", "location": {"name": "bellevue, washington, united states", "locality": "bellevue", "region": "washington", "metro": "seattle, washington", "country": "united states", "continent": "north america", "street_address": "3633 136th place southeast", "address_line_2": null, "postal_code": "98006", "geo": "47.61,-122.19"}, "linkedin_url": "linkedin.com/company/market-leader", "linkedin_id": "327454", "facebook_url": "facebook.com/marketleader", "twitter_url": "twitter.com/market_leader", "website": "marketleader.com"}, "location_names": ["bellevue, washington, united states"], "end_date": "2018-03", "start_date": "2016-06", "title": {"name": "senior director of sales", "role": "sales", "sub_role": "accounts", "levels": ["senior", "director"]}, "is_primary": false}, {"company": {"name": "bizible", "size": "51-200", "id": "bizible", "founded": 2011, "industry": "internet", "location": {"name": "seattle, washington, united states", "locality": "seattle", "region": "washington", "metro": "seattle, washington", "country": "united states", "continent": "north america", "street_address": "542 1st avenue south", "address_line_2": "#200", "postal_code": "98104", "geo": "47.60,-122.33"}, "linkedin_url": "linkedin.com/company/bizible", "linkedin_id": "2452388", "facebook_url": "facebook.com/bizible", "twitter_url": "twitter.com/bizible", "website": "bizible.com"}, "location_names": ["seattle, washington, united states"], "end_date": "2016-05", "start_date": "2014-12", "title": {"name": "head of sales", "role": "sales", "sub_role": "accounts", "levels": ["director"]}, "is_primary": false}, {"company": {"name": "coldwell banker bain | seal", "size": "1001-5000", "id": "coldwell-banker-bain", "founded": 1972, "industry": "real estate", "location": {"name": "bellevue, washington, united states", "locality": "bellevue", "region": "washington", "metro": "seattle, washington", "country": "united states", "continent": "north america", "street_address": "12721 bel red road", "address_line_2": null, "postal_code": "98005", "geo": "47.61,-122.19"}, "linkedin_url": "linkedin.com/company/coldwell-banker-bain", "linkedin_id": "10877", "facebook_url": "facebook.com/cbbain", "twitter_url": "twitter.com/cbbainseal", "website": "coldwellbankerbain.com"}, "location_names": ["seattle, washington, united states"], "end_date": null, "start_date": "2018-04-23", "title": {"name": "licensed real estate broker", "role": "finance", "sub_role": null, "levels": []}, "is_primary": true}], "education": [{"school": {"name": "monmouth regional high school", "type": "secondary school", "id": null, "location": null, "linkedin_url": null, "facebook_url": null, "twitter_url": null, "linkedin_id": null, "website": null, "domain": null}, "degrees": [], "start_date": null, "end_date": "1989", "majors": [], "minors": [], "gpa": null}, {"school": {"name": "university of washington", "type": "post-secondary institution", "id": "1Y2iIUYMYH2pTDQGfHD3Bw_0", "location": {"name": "seattle, washington, united states", "locality": "seattle", "region": "washington", "country": "united states", "continent": "north america"}, "linkedin_url": "linkedin.com/school/university-of-washington", "facebook_url": "facebook.com/uofwa", "twitter_url": "twitter.com/uw", "linkedin_id": "19657", "website": "uw.edu", "domain": "uw.edu"}, "end_date": "2018", "start_date": "2017", "gpa": null, "degrees": [], "majors": ["business administration", "management", "business administration and management"], "minors": []}, {"school": {"name": "university of washington", "type": "post-secondary institution", "id": "1Y2iIUYMYH2pTDQGfHD3Bw_0", "location": {"name": "seattle, washington, united states", "locality": "seattle", "region": "washington", "country": "united states", "continent": "north america"}, "linkedin_url": "linkedin.com/school/university-of-washington", "facebook_url": "facebook.com/uofwa", "twitter_url": "twitter.com/uw", "linkedin_id": "19657", "website": "uw.edu", "domain": "uw.edu"}, "end_date": "2004", "start_date": "2004", "gpa": null, "degrees": [], "majors": [], "minors": []}, {"school": {"name": "boston university", "type": "post-secondary institution", "id": "-4Rhx2hYbWblv1YyB1GBcQ_0", "location": {"name": "boston, massachusetts, united states", "locality": "boston", "region": "massachusetts", "country": "united states", "continent": "north america"}, "linkedin_url": "linkedin.com/school/boston-university", "facebook_url": "facebook.com/bostonuniversity", "twitter_url": "twitter.com/bu_tweets", "linkedin_id": "18461", "website": "bu.edu", "domain": "bu.edu"}, "end_date": "1993", "start_date": "1989-09", "gpa": null, "degrees": ["bachelors", "bachelor of science"], "majors": ["communications"], "minors": []}], "profiles": [{"network": "linkedin", "id": "4228917", "url": "linkedin.com/in/joycejuntunen", "username": "joycejuntunen"}, {"network": "facebook", "id": "1354269481", "url": "facebook.com/joycegal", "username": "joycegal"}, {"network": "linkedin", "id": null, "url": "linkedin.com/in/joyce-juntunen-3594bb1", "username": "joyce-juntunen-3594bb1"}], "version_status": {"status": "updated", "contains": [], "previous_version": "17.0", "current_version": "18.0"}}
