{"id": "Kv72tYQXorHe8gtBqpoH3Q_0000", "full_name": "stephanie callen", "first_name": "stephanie", "middle_initial": "w", "middle_name": null, "last_initial": "c", "last_name": "callen", "gender": "female", "birth_year": 1961, "birth_date": "1961-09", "linkedin_url": "linkedin.com/in/stephanie-callen-4a234413", "linkedin_username": "stephanie-callen-4a234413", "linkedin_id": "45626810", "facebook_url": "facebook.com/stephanie.callen1", "facebook_username": "stephanie.callen1", "facebook_id": "1428710373", "twitter_url": "twitter.com/stephaniecallen", "twitter_username": "stephaniecallen", "github_url": null, "github_username": null, "work_email": null, "personal_emails": ["callen.julie@gmail.com"], "mobile_phone": "+12533702771", "industry": "real estate", "job_title": "certified residential specialist", "job_title_role": null, "job_title_sub_role": null, "job_title_levels": [], "job_company_id": "coldwell-banker-bain", "job_company_name": "coldwell banker bain | seal", "job_company_website": "coldwellbankerbain.com", "job_company_size": "1001-5000", "job_company_founded": 1972, "job_company_industry": "real estate", "job_company_linkedin_url": "linkedin.com/company/coldwell-banker-bain", "job_company_linkedin_id": "10877", "job_company_facebook_url": "facebook.com/cbbain", "job_company_twitter_url": "twitter.com/cbbainseal", "job_company_location_name": "bellevue, washington, united states", "job_company_location_locality": "bellevue", "job_company_location_metro": "seattle, washington", "job_company_location_region": "washington", "job_company_location_geo": "47.61,-122.19", "job_company_location_street_address": "12721 bel red road", "job_company_location_address_line_2": null, "job_company_location_postal_code": "98005", "job_company_location_country": "united states", "job_company_location_continent": "north america", "job_last_updated": "2021-02-01", "job_start_date": "2005", "location_name": "tacoma, washington, united states", "location_locality": "tacoma", "location_metro": "seattle, washington", "location_region": "washington", "location_country": "united states", "location_continent": "north america", "location_street_address": "17914 32nd", "location_address_line_2": null, "location_postal_code": "98446", "location_geo": "47.25,-122.44", "location_last_updated": "2020-10-01", "phone_numbers": ["+12533702771", "+12533707027", "+18017738963", "+12538478527", "+13157889644", "+14022919285", "+12538753036", "+12538419100"], "emails": [{"address": "stephaniecallen@cbbain.com", "type": "professional"}, {"address": "callen.julie@gmail.com", "type": "personal"}], "interests": [], "skills": ["waterfront", "first time home buyers", "council of residential specialists", "real estate", "single family homes", "vacation homes", "investment properties", "townhomes", "abr", "short sales", "buyer representation", "sellers", "condos", "relocation", "move up buyers", "foreclosures", "sfr", "reo", "referrals", "1031 exchanges", "new home sales", "listings", "residential homes", "relocation buyers", "e pro", "seniors", "working with first time home buyers", "working with relocation buyers", "real estate owned"], "location_names": ["mount pocono, pennsylvania, united states", "rainier, washington, united states", "graham, washington, united states", "spanaway, washington, united states", "seattle, washington, united states", "lacey, washington, united states", "bellevue, nebraska, united states", "watertown, new york, united states", "clearfield, utah, united states", "tacoma, washington, united states", "puyallup, washington, united states"], "regions": ["utah, united states", "nebraska, united states", "pennsylvania, united states", "washington, united states", "new york, united states"], "countries": ["united states"], "street_addresses": [{"name": "tacoma, washington, united states", "locality": "tacoma", "region": "washington", "metro": "seattle, washington", "country": "united states", "continent": "north america", "street_address": "17914 32nd", "address_line_2": null, "postal_code": "98446", "geo": "47.25,-122.44"}, {"name": "rainier, washington, united states", "locality": "rainier", "region": "washington", "metro": "olympia, washington", "country": "united states", "continent": "north america", "street_address": "303 easy southeast street", "address_line_2": null, "postal_code": "98576", "geo": "46.88,-122.68"}, {"name": "lacey, washington, united states", "locality": "lacey", "region": "washington", "metro": "olympia, washington", "country": "united states", "continent": "north america", "street_address": "5916 stockton southeast street", "address_line_2": null, "postal_code": "98513", "geo": "47.03,-122.82"}, {"name": "bellevue, nebraska, united states", "locality": "bellevue", "region": "nebraska", "metro": "omaha, nebraska", "country": "united states", "continent": "north america", "street_address": "1219 wilroy road", "address_line_2": null, "postal_code": "68005", "geo": "41.13,-95.89"}, {"name": "clearfield, utah, united states", "locality": "clearfield", "region": "utah", "metro": "ogden, utah", "country": "united states", "continent": "north america", "street_address": "99 west 2100 south", "address_line_2": null, "postal_code": "84015", "geo": "41.11,-112.02"}, {"name": "puyallup, washington, united states", "locality": "puyallup", "region": "washington", "metro": "seattle, washington", "country": "united states", "continent": "north america", "street_address": "12303 136th", "address_line_2": null, "postal_code": "98374", "geo": "47.18,-122.29"}, {"name": "tacoma, washington, united states", "locality": "tacoma", "region": "washington", "metro": "seattle, washington", "country": "united states", "continent": "north america", "street_address": "2207 north 30th street", "address_line_2": null, "postal_code": "98403", "geo": "47.25,-122.44"}, {"name": "spanaway, washington, united states", "locality": "spanaway", "region": "washington", "metro": "seattle, washington", "country": "united states", "continent": "north america", "street_address": "20008 pirnie east road", "address_line_2": null, "postal_code": "98387", "geo": "47.10,-122.43"}, {"name": "spanaway, washington, united states", "locality": "spanaway", "region": "washington", "metro": "seattle, washington", "country": "united states", "continent": "north america", "street_address": "3214 241st", "address_line_2": null, "postal_code": "98387", "geo": "47.10,-122.43"}, {"name": "mount pocono, pennsylvania, united states", "locality": "mount pocono", "region": "pennsylvania", "metro": "east stroudsburg, pennsylvania", "country": "united states", "continent": "north america", "street_address": "po box 682", "address_line_2": null, "postal_code": "18344", "geo": "41.12,-75.36"}, {"name": "graham, washington, united states", "locality": "graham", "region": "washington", "metro": "seattle, washington", "country": "united states", "continent": "north america", "street_address": "6715 247th street east court east", "address_line_2": null, "postal_code": "98338", "geo": "47.05,-122.29"}, {"name": "watertown, new york, united states", "locality": "watertown", "region": "new york", "metro": "watertown, new york", "country": "united states", "continent": "north america", "street_address": "249 south massey street", "address_line_2": null, "postal_code": "13601", "geo": "43.97,-75.91"}, {"name": "bellevue, nebraska, united states", "locality": "bellevue", "region": "nebraska", "metro": "omaha, nebraska", "country": "united states", "continent": "north america", "street_address": "1218 wilroy road", "address_line_2": null, "postal_code": "68005", "geo": "41.13,-95.89"}, {"name": "tacoma, washington, united states", "locality": "tacoma", "region": "washington", "metro": "seattle, washington", "country": "united states", "continent": "north america", "street_address": "17914 32nd avenue east", "address_line_2": null, "postal_code": "98446", "geo": "47.25,-122.44"}], "experience": [{"company": {"name": "coldwell banker bain | seal", "size": "1001-5000", "id": "coldwell-banker-bain", "founded": 1972, "industry": "real estate", "location": {"name": "bellevue, washington, united states", "locality": "bellevue", "region": "washington", "metro": "seattle, washington", "country": "united states", "continent": "north america", "street_address": "12721 bel red road", "address_line_2": null, "postal_code": "98005", "geo": "47.61,-122.19"}, "linkedin_url": "linkedin.com/company/coldwell-banker-bain", "linkedin_id": "10877", "facebook_url": "facebook.com/cbbain", "twitter_url": "twitter.com/cbbainseal", "website": "coldwellbankerbain.com"}, "location_names": ["bellevue, washington, united states"], "end_date": null, "start_date": "2005", "title": {"name": "certified residential specialist", "role": null, "sub_role": null, "levels": []}, "is_primary": true}], "education": [{"school": {"name": "bellevue university", "type": "post-secondary institution", "id": "4UwyrLUzbdT67TaLwIyLrw_0", "location": {"name": "bellevue, nebraska, united states", "locality": "bellevue", "region": "nebraska", "country": "united states", "continent": "north america"}, "linkedin_url": "linkedin.com/school/bellevue-university", "facebook_url": "facebook.com/bellevueuniversity", "twitter_url": "twitter.com/bellevueu", "linkedin_id": "18818", "website": "bellevue.edu", "domain": "bellevue.edu"}, "degrees": [], "start_date": null, "end_date": null, "majors": [], "minors": [], "gpa": null}, {"school": {"name": "college of saint mary", "type": "post-secondary institution", "id": "5bCg1jBcWsrdeXqd1tbCwQ_0", "location": {"name": "omaha, nebraska, united states", "locality": "omaha", "region": "nebraska", "country": "united states", "continent": "north america"}, "linkedin_url": "linkedin.com/school/college-of-saint-mary", "facebook_url": "facebook.com/csm.omaha", "twitter_url": "twitter.com/csm_omaha", "linkedin_id": "33070", "website": "csm.edu", "domain": "csm.edu"}, "degrees": [], "start_date": null, "end_date": null, "majors": [], "minors": [], "gpa": null}], "profiles": [{"network": "linkedin", "id": "45626810", "url": "linkedin.com/in/stephanie-callen-4a234413", "username": "stephanie-callen-4a234413"}, {"network": "facebook", "id": "1428710373", "url": "facebook.com/stephanie.callen1", "username": "stephanie.callen1"}, {"network": "twitter", "id": null, "url": "twitter.com/stephaniecallen", "username": "stephaniecallen"}], "version_status": {"status": "unchanged", "contains": [], "previous_version": "17.0", "current_version": "18.0"}}
